{"run_id": "run-pipeline-test", "drone_id": "drone-0001", "seq": 0, "timestamp": 1783038704529, "payload": {"lat": 47.376855, "lon": 8.5418989, "alt": 410.0, "roll": -0.0872664600610733, "pitch": 0.03490658476948738, "yaw": 1.5707963705062866, "battery": 100, "mode": "GUIDED"}}
{"run_id": "run-pipeline-test", "drone_id": "drone-0002", "seq": 0, "timestamp": 1783038704529, "payload": {"lat": 47.3770106, "lon": 8.5416336, "alt": 414.0, "roll": -0.0872664600610733, "pitch": 0.03490658476948738, "yaw": 3.665191411972046, "battery": 100, "mode": "GUIDED"}}
{"run_id": "run-pipeline-test", "drone_id": "drone-0003", "seq": 0, "timestamp": 1783038704529, "payload": {"lat": 47.3767893, "lon": 8.541501, "alt": 418.0, "roll": -0.0872664600610733, "pitch": 0.03490658476948738, "yaw": 5.759586334228516, "battery": 100, "mode": "GUIDED"}}
{"run_id": "run-pipeline-test", "drone_id": "drone-0001", "seq": 1, "timestamp": 1783038704631, "payload": {"lat": 47.3768586, "lon": 8.5418989, "alt": 410.0, "roll": -0.0872664600610733, "pitch": 0.03490658476948738, "yaw": 1.5907963514328003, "battery": 100, "mode": "GUIDED"}}
{"run_id": "run-pipeline-test", "drone_id": "drone-0002", "seq": 1, "timestamp": 1783038704631, "payload": {"lat": 47.3770088, "lon": 8.5416291, "alt": 414.0, "roll": -0.0872664600610733, "pitch": 0.03490658476948738, "yaw": 3.6851913928985596, "battery": 100, "mode": "GUIDED"}}
{"run_id": "run-pipeline-test", "drone_id": "drone-0003", "seq": 1, "timestamp": 1783038704632, "payload": {"lat": 47.3767875, "lon": 8.5415056, "alt": 418.0, "roll": -0.0872664600610733, "pitch": 0.03490658476948738, "yaw": 5.779586315155029, "battery": 100, "mode": "GUIDED"}}
{"run_id": "run-pipeline-test", "drone_id": "drone-0001", "seq": 2, "timestamp": 1783038704732, "payload": {"lat": 47.3768622, "lon": 8.5418987, "alt": 410.0, "roll": -0.0872664600610733, "pitch": 0.03490658476948738, "yaw": 1.610796332359314, "battery": 99, "mode": "GUIDED"}}
{"run_id": "run-pipeline-test", "drone_id": "drone-0002", "seq": 2, "timestamp": 1783038704732, "payload": {"lat": 47.3770069, "lon": 8.5416245, "alt": 414.0, "roll": -0.0872664600610733, "pitch": 0.03490658476948738, "yaw": 3.7051913738250732, "battery": 99, "mode": "GUIDED"}}
{"run_id": "run-pipeline-test", "drone_id": "drone-0003", "seq": 2, "timestamp": 1783038704732, "payload": {"lat": 47.3767858, "lon": 8.5415103, "alt": 418.0, "roll": -0.0872664600610733, "pitch": 0.03490658476948738, "yaw": 5.799586296081543, "battery": 99, "mode": "GUIDED"}}
{"run_id": "run-pipeline-test", "drone_id": "drone-0001", "seq": 3, "timestamp": 1783038704832, "payload": {"lat": 47.3768658, "lon": 8.5418985, "alt": 410.0, "roll": -0.0872664600610733, "pitch": 0.03490658476948738, "yaw": 1.6307963132858276, "battery": 98, "mode": "GUIDED"}}
{"run_id": "run-pipeline-test", "drone_id": "drone-0002", "seq": 3, "timestamp": 1783038704832, "payload": {"lat": 47.377005, "lon": 8.5416201, "alt": 414.0, "roll": -0.0872664600610733, "pitch": 0.03490658476948738, "yaw": 3.725191354751587, "battery": 98, "mode": "GUIDED"}}
{"run_id": "run-pipeline-test", "drone_id": "drone-0003", "seq": 3, "timestamp": 1783038704832, "payload": {"lat": 47.3767842, "lon": 8.541515, "alt": 418.0, "roll": -0.0872664600610733, "pitch": 0.03490658476948738, "yaw": 5.819586753845215, "battery": 98, "mode": "GUIDED"}}
{"run_id": "run-pipeline-test", "drone_id": "drone-0001", "seq": 4, "timestamp": 1783038704929, "payload": {"lat": 47.3768694, "lon": 8.5418981, "alt": 410.0, "roll": -0.0872664600610733, "pitch": 0.03490658476948738, "yaw": 1.6507962942123413, "battery": 98, "mode": "GUIDED"}}
{"run_id": "run-pipeline-test", "drone_id": "drone-0002", "seq": 4, "timestamp": 1783038704929, "payload": {"lat": 47.377003, "lon": 8.5416157, "alt": 414.0, "roll": -0.0872664600610733, "pitch": 0.03490658476948738, "yaw": 3.7451913356781006, "battery": 98, "mode": "GUIDED"}}
{"run_id": "run-pipeline-test", "drone_id": "drone-0003", "seq": 4, "timestamp": 1783038704929, "payload": {"lat": 47.3767826, "lon": 8.5415198, "alt": 418.0, "roll": -0.0872664600610733, "pitch": 0.03490658476948738, "yaw": 5.8395867347717285, "battery": 98, "mode": "GUIDED"}}
{"run_id": "run-pipeline-test", "drone_id": "drone-0001", "seq": 5, "timestamp": 1783038705028, "payload": {"lat": 47.376873, "lon": 8.5418976, "alt": 410.0, "roll": -0.0872664600610733, "pitch": 0.03490658476948738, "yaw": 1.670796275138855, "battery": 97, "mode": "GUIDED"}}
{"run_id": "run-pipeline-test", "drone_id": "drone-0002", "seq": 5, "timestamp": 1783038705029, "payload": {"lat": 47.3770009, "lon": 8.5416113, "alt": 414.0, "roll": -0.0872664600610733, "pitch": 0.03490658476948738, "yaw": 3.7651913166046143, "battery": 97, "mode": "GUIDED"}}
{"run_id": "run-pipeline-test", "drone_id": "drone-0003", "seq": 5, "timestamp": 1783038705029, "payload": {"lat": 47.3767811, "lon": 8.5415246, "alt": 418.0, "roll": -0.0872664600610733, "pitch": 0.03490658476948738, "yaw": 5.859586715698242, "battery": 97, "mode": "GUIDED"}}
{"run_id": "run-pipeline-test", "drone_id": "drone-0001", "seq": 6, "timestamp": 1783038705128, "payload": {"lat": 47.3768765, "lon": 8.541897, "alt": 410.0, "roll": -0.0872664600610733, "pitch": 0.03490658476948738, "yaw": 1.6907963752746582, "battery": 97, "mode": "GUIDED"}}
{"run_id": "run-pipeline-test", "drone_id": "drone-0002", "seq": 6, "timestamp": 1783038705128, "payload": {"lat": 47.3769988, "lon": 8.5416071, "alt": 414.0, "roll": -0.0872664600610733, "pitch": 0.03490658476948738, "yaw": 3.785191535949707, "battery": 97, "mode": "GUIDED"}}
{"run_id": "run-pipeline-test", "drone_id": "drone-0003", "seq": 6, "timestamp": 1783038705128, "payload": {"lat": 47.3767796, "lon": 8.5415294, "alt": 418.0, "roll": -0.0872664600610733, "pitch": 0.03490658476948738, "yaw": 5.879586696624756, "battery": 97, "mode": "GUIDED"}}
{"run_id": "run-pipeline-test", "drone_id": "drone-0001", "seq": 7, "timestamp": 1783038705229, "payload": {"lat": 47.3768801, "lon": 8.5418963, "alt": 410.0, "roll": -0.0872664600610733, "pitch": 0.03490658476948738, "yaw": 1.7107963562011719, "battery": 96, "mode": "GUIDED"}}
{"run_id": "run-pipeline-test", "drone_id": "drone-0002", "seq": 7, "timestamp": 1783038705229, "payload": {"lat": 47.3769966, "lon": 8.5416029, "alt": 414.0, "roll": -0.0872664600610733, "pitch": 0.03490658476948738, "yaw": 3.8051915168762207, "battery": 96, "mode": "GUIDED"}}
{"run_id": "run-pipeline-test", "drone_id": "drone-0003", "seq": 7, "timestamp": 1783038705229, "payload": {"lat": 47.3767783, "lon": 8.5415343, "alt": 418.0, "roll": -0.0872664600610733, "pitch": 0.03490658476948738, "yaw": 5.8995866775512695, "battery": 96, "mode": "GUIDED"}}
{"run_id": "run-pipeline-test", "drone_id": "drone-0001", "seq": 8, "timestamp": 1783038705328, "payload": {"lat": 47.3768837, "lon": 8.5418955, "alt": 410.0, "roll": -0.0872664600610733, "pitch": 0.03490658476948738, "yaw": 1.7307963371276855, "battery": 96, "mode": "GUIDED"}}
{"run_id": "run-pipeline-test", "drone_id": "drone-0002", "seq": 8, "timestamp": 1783038705328, "payload": {"lat": 47.3769943, "lon": 8.5415987, "alt": 414.0, "roll": -0.0872664600610733, "pitch": 0.03490658476948738, "yaw": 3.8251914978027344, "battery": 96, "mode": "GUIDED"}}
{"run_id": "run-pipeline-test", "drone_id": "drone-0003", "seq": 8, "timestamp": 1783038705328, "payload": {"lat": 47.3767769, "lon": 8.5415393, "alt": 418.0, "roll": -0.0872664600610733, "pitch": 0.03490658476948738, "yaw": 5.919586658477783, "battery": 96, "mode": "GUIDED"}}
{"run_id": "run-pipeline-test", "drone_id": "drone-0001", "seq": 9, "timestamp": 1783038705431, "payload": {"lat": 47.3768872, "lon": 8.5418946, "alt": 410.0, "roll": -0.0872664600610733, "pitch": 0.03490658476948738, "yaw": 1.7507963180541992, "battery": 95, "mode": "GUIDED"}}
{"run_id": "run-pipeline-test", "drone_id": "drone-0002", "seq": 9, "timestamp": 1783038705432, "payload": {"lat": 47.376992, "lon": 8.5415946, "alt": 414.0, "roll": -0.0872664600610733, "pitch": 0.03490658476948738, "yaw": 3.845191478729248, "battery": 95, "mode": "GUIDED"}}
{"run_id": "run-pipeline-test", "drone_id": "drone-0003", "seq": 9, "timestamp": 1783038705432, "payload": {"lat": 47.3767757, "lon": 8.5415442, "alt": 418.0, "roll": -0.0872664600610733, "pitch": 0.03490658476948738, "yaw": 5.939586639404297, "battery": 95, "mode": "GUIDED"}}
{"run_id": "run-pipeline-test", "drone_id": "drone-0001", "seq": 10, "timestamp": 1783038705532, "payload": {"lat": 47.3768907, "lon": 8.5418936, "alt": 410.0, "roll": -0.0872664600610733, "pitch": 0.03490658476948738, "yaw": 1.770796298980713, "battery": 94, "mode": "GUIDED"}}
{"run_id": "run-pipeline-test", "drone_id": "drone-0002", "seq": 10, "timestamp": 1783038705532, "payload": {"lat": 47.3769897, "lon": 8.5415906, "alt": 414.0, "roll": -0.0872664600610733, "pitch": 0.03490658476948738, "yaw": 3.8651914596557617, "battery": 94, "mode": "GUIDED"}}
{"run_id": "run-pipeline-test", "drone_id": "drone-0003", "seq": 10, "timestamp": 1783038705532, "payload": {"lat": 47.3767745, "lon": 8.5415493, "alt": 418.0, "roll": -0.0872664600610733, "pitch": 0.03490658476948738, "yaw": 5.9595866203308105, "battery": 94, "mode": "GUIDED"}}
{"run_id": "run-pipeline-test", "drone_id": "drone-0001", "seq": 11, "timestamp": 1783038705632, "payload": {"lat": 47.3768942, "lon": 8.5418925, "alt": 410.0, "roll": -0.0872664600610733, "pitch": 0.03490658476948738, "yaw": 1.7907962799072266, "battery": 94, "mode": "GUIDED"}}
{"run_id": "run-pipeline-test", "drone_id": "drone-0002", "seq": 11, "timestamp": 1783038705632, "payload": {"lat": 47.3769873, "lon": 8.5415867, "alt": 414.0, "roll": -0.0872664600610733, "pitch": 0.03490658476948738, "yaw": 3.8851914405822754, "battery": 94, "mode": "GUIDED"}}
{"run_id": "run-pipeline-test", "drone_id": "drone-0003", "seq": 11, "timestamp": 1783038705632, "payload": {"lat": 47.3767734, "lon": 8.5415543, "alt": 418.0, "roll": -0.0872664600610733, "pitch": 0.03490658476948738, "yaw": 5.979586601257324, "battery": 94, "mode": "GUIDED"}}
{"run_id": "run-pipeline-test", "drone_id": "drone-0001", "seq": 12, "timestamp": 1783038705728, "payload": {"lat": 47.3768977, "lon": 8.5418913, "alt": 410.0, "roll": -0.0872664600610733, "pitch": 0.03490658476948738, "yaw": 1.8107963800430298, "battery": 93, "mode": "GUIDED"}}
{"run_id": "run-pipeline-test", "drone_id": "drone-0002", "seq": 12, "timestamp": 1783038705729, "payload": {"lat": 47.3769848, "lon": 8.5415828, "alt": 414.0, "roll": -0.0872664600610733, "pitch": 0.03490658476948738, "yaw": 3.905191421508789, "battery": 93, "mode": "GUIDED"}}
{"run_id": "run-pipeline-test", "drone_id": "drone-0003", "seq": 12, "timestamp": 1783038705729, "payload": {"lat": 47.3767724, "lon": 8.5415594, "alt": 418.0, "roll": -0.0872664600610733, "pitch": 0.03490658476948738, "yaw": 5.999586582183838, "battery": 93, "mode": "GUIDED"}}
{"run_id": "run-pipeline-test", "drone_id": "drone-0001", "seq": 13, "timestamp": 1783038705831, "payload": {"lat": 47.3769012, "lon": 8.54189, "alt": 410.0, "roll": -0.0872664600610733, "pitch": 0.03490658476948738, "yaw": 1.8307963609695435, "battery": 93, "mode": "GUIDED"}}
{"run_id": "run-pipeline-test", "drone_id": "drone-0002", "seq": 13, "timestamp": 1783038705831, "payload": {"lat": 47.3769823, "lon": 8.541579, "alt": 414.0, "roll": -0.0872664600610733, "pitch": 0.03490658476948738, "yaw": 3.9251914024353027, "battery": 93, "mode": "GUIDED"}}
{"run_id": "run-pipeline-test", "drone_id": "drone-0003", "seq": 13, "timestamp": 1783038705832, "payload": {"lat": 47.3767714, "lon": 8.5415645, "alt": 418.0, "roll": -0.0872664600610733, "pitch": 0.03490658476948738, "yaw": 6.019586563110352, "battery": 93, "mode": "GUIDED"}}
{"run_id": "run-pipeline-test", "drone_id": "drone-0001", "seq": 14, "timestamp": 1783038705932, "payload": {"lat": 47.3769047, "lon": 8.5418886, "alt": 410.0, "roll": -0.0872664600610733, "pitch": 0.03490658476948738, "yaw": 1.8507963418960571, "battery": 92, "mode": "GUIDED"}}
{"run_id": "run-pipeline-test", "drone_id": "drone-0002", "seq": 14, "timestamp": 1783038705932, "payload": {"lat": 47.3769797, "lon": 8.5415753, "alt": 414.0, "roll": -0.0872664600610733, "pitch": 0.03490658476948738, "yaw": 3.9451913833618164, "battery": 92, "mode": "GUIDED"}}
{"run_id": "run-pipeline-test", "drone_id": "drone-0003", "seq": 14, "timestamp": 1783038705932, "payload": {"lat": 47.3767705, "lon": 8.5415696, "alt": 418.0, "roll": -0.0872664600610733, "pitch": 0.03490658476948738, "yaw": 6.039586544036865, "battery": 92, "mode": "GUIDED"}}
{"run_id": "run-pipeline-test", "drone_id": "drone-0001", "seq": 15, "timestamp": 1783038706032, "payload": {"lat": 47.3769081, "lon": 8.5418871, "alt": 410.0, "roll": -0.0872664600610733, "pitch": 0.03490658476948738, "yaw": 1.8707963228225708, "battery": 92, "mode": "GUIDED"}}
{"run_id": "run-pipeline-test", "drone_id": "drone-0002", "seq": 15, "timestamp": 1783038706032, "payload": {"lat": 47.3769771, "lon": 8.5415716, "alt": 414.0, "roll": -0.0872664600610733, "pitch": 0.03490658476948738, "yaw": 3.96519136428833, "battery": 92, "mode": "GUIDED"}}
{"run_id": "run-pipeline-test", "drone_id": "drone-0003", "seq": 15, "timestamp": 1783038706032, "payload": {"lat": 47.3767697, "lon": 8.5415748, "alt": 418.0, "roll": -0.0872664600610733, "pitch": 0.03490658476948738, "yaw": 6.059586524963379, "battery": 92, "mode": "GUIDED"}}
{"run_id": "run-pipeline-test", "drone_id": "drone-0001", "seq": 16, "timestamp": 1783038706130, "payload": {"lat": 47.3769116, "lon": 8.5418855, "alt": 410.0, "roll": -0.0872664600610733, "pitch": 0.03490658476948738, "yaw": 1.8907963037490845, "battery": 91, "mode": "GUIDED"}}
{"run_id": "run-pipeline-test", "drone_id": "drone-0002", "seq": 16, "timestamp": 1783038706130, "payload": {"lat": 47.3769745, "lon": 8.5415681, "alt": 414.0, "roll": -0.0872664600610733, "pitch": 0.03490658476948738, "yaw": 3.9851913452148438, "battery": 91, "mode": "GUIDED"}}
{"run_id": "run-pipeline-test", "drone_id": "drone-0003", "seq": 16, "timestamp": 1783038706130, "payload": {"lat": 47.3767689, "lon": 8.54158, "alt": 418.0, "roll": -0.0872664600610733, "pitch": 0.03490658476948738, "yaw": 6.079586505889893, "battery": 91, "mode": "GUIDED"}}
{"run_id": "run-pipeline-test", "drone_id": "drone-0001", "seq": 17, "timestamp": 1783038706233, "payload": {"lat": 47.3769149, "lon": 8.5418837, "alt": 410.0, "roll": -0.0872664600610733, "pitch": 0.03490658476948738, "yaw": 1.9107962846755981, "battery": 91, "mode": "GUIDED"}}
{"run_id": "run-pipeline-test", "drone_id": "drone-0002", "seq": 17, "timestamp": 1783038706233, "payload": {"lat": 47.3769718, "lon": 8.5415646, "alt": 414.0, "roll": -0.0872664600610733, "pitch": 0.03490658476948738, "yaw": 4.005191326141357, "battery": 91, "mode": "GUIDED"}}
{"run_id": "run-pipeline-test", "drone_id": "drone-0003", "seq": 17, "timestamp": 1783038706234, "payload": {"lat": 47.3767682, "lon": 8.5415852, "alt": 418.0, "roll": -0.0872664600610733, "pitch": 0.03490658476948738, "yaw": 6.099586486816406, "battery": 91, "mode": "GUIDED"}}
{"run_id": "run-pipeline-test", "drone_id": "drone-0001", "seq": 18, "timestamp": 1783038706328, "payload": {"lat": 47.3769183, "lon": 8.5418819, "alt": 410.0, "roll": -0.0872664600610733, "pitch": 0.03490658476948738, "yaw": 1.9307963848114014, "battery": 90, "mode": "GUIDED"}}
{"run_id": "run-pipeline-test", "drone_id": "drone-0002", "seq": 18, "timestamp": 1783038706329, "payload": {"lat": 47.376969, "lon": 8.5415612, "alt": 414.0, "roll": -0.0872664600610733, "pitch": 0.03490658476948738, "yaw": 4.025191307067871, "battery": 90, "mode": "GUIDED"}}
{"run_id": "run-pipeline-test", "drone_id": "drone-0003", "seq": 18, "timestamp": 1783038706329, "payload": {"lat": 47.3767676, "lon": 8.5415904, "alt": 418.0, "roll": -0.0872664600610733, "pitch": 0.03490658476948738, "yaw": 6.11958646774292, "battery": 90, "mode": "GUIDED"}}
{"run_id": "run-pipeline-test", "drone_id": "drone-0001", "seq": 19, "timestamp": 1783038706429, "payload": {"lat": 47.3769217, "lon": 8.54188, "alt": 410.0, "roll": -0.0872664600610733, "pitch": 0.03490658476948738, "yaw": 1.950796365737915, "battery": 89, "mode": "GUIDED"}}
{"run_id": "run-pipeline-test", "drone_id": "drone-0002", "seq": 19, "timestamp": 1783038706429, "payload": {"lat": 47.3769662, "lon": 8.5415579, "alt": 414.0, "roll": -0.0872664600610733, "pitch": 0.03490658476948738, "yaw": 4.045191287994385, "battery": 89, "mode": "GUIDED"}}
{"run_id": "run-pipeline-test", "drone_id": "drone-0003", "seq": 19, "timestamp": 1783038706430, "payload": {"lat": 47.3767671, "lon": 8.5415957, "alt": 418.0, "roll": -0.0872664600610733, "pitch": 0.03490658476948738, "yaw": 6.139586448669434, "battery": 89, "mode": "GUIDED"}}
{"run_id": "run-pipeline-test", "drone_id": "drone-0001", "seq": 20, "timestamp": 1783038706528, "payload": {"lat": 47.376925, "lon": 8.541878, "alt": 410.0, "roll": -0.0872664600610733, "pitch": 0.03490658476948738, "yaw": 1.9707963466644287, "battery": 89, "mode": "GUIDED"}}
{"run_id": "run-pipeline-test", "drone_id": "drone-0002", "seq": 20, "timestamp": 1783038706529, "payload": {"lat": 47.3769634, "lon": 8.5415546, "alt": 414.0, "roll": -0.0872664600610733, "pitch": 0.03490658476948738, "yaw": 4.065191268920898, "battery": 89, "mode": "GUIDED"}}
{"run_id": "run-pipeline-test", "drone_id": "drone-0003", "seq": 20, "timestamp": 1783038706529, "payload": {"lat": 47.3767666, "lon": 8.5416009, "alt": 418.0, "roll": -0.0872664600610733, "pitch": 0.03490658476948738, "yaw": 6.159586429595947, "battery": 89, "mode": "GUIDED"}}
{"run_id": "run-pipeline-test", "drone_id": "drone-0001", "seq": 21, "timestamp": 1783038706630, "payload": {"lat": 47.3769283, "lon": 8.5418759, "alt": 410.0, "roll": -0.0872664600610733, "pitch": 0.03490658476948738, "yaw": 1.9907963275909424, "battery": 88, "mode": "GUIDED"}}
{"run_id": "run-pipeline-test", "drone_id": "drone-0002", "seq": 21, "timestamp": 1783038706630, "payload": {"lat": 47.3769605, "lon": 8.5415515, "alt": 414.0, "roll": -0.0872664600610733, "pitch": 0.03490658476948738, "yaw": 4.085191249847412, "battery": 88, "mode": "GUIDED"}}
{"run_id": "run-pipeline-test", "drone_id": "drone-0003", "seq": 21, "timestamp": 1783038706630, "payload": {"lat": 47.3767662, "lon": 8.5416062, "alt": 418.0, "roll": -0.0872664600610733, "pitch": 0.03490658476948738, "yaw": 6.179586410522461, "battery": 88, "mode": "GUIDED"}}
{"run_id": "run-pipeline-test", "drone_id": "drone-0001", "seq": 22, "timestamp": 1783038706731, "payload": {"lat": 47.3769316, "lon": 8.5418737, "alt": 410.0, "roll": -0.0872664600610733, "pitch": 0.03490658476948738, "yaw": 2.010796308517456, "battery": 88, "mode": "GUIDED"}}
{"run_id": "run-pipeline-test", "drone_id": "drone-0002", "seq": 22, "timestamp": 1783038706731, "payload": {"lat": 47.3769575, "lon": 8.5415484, "alt": 414.0, "roll": -0.0872664600610733, "pitch": 0.03490658476948738, "yaw": 4.105191230773926, "battery": 88, "mode": "GUIDED"}}
{"run_id": "run-pipeline-test", "drone_id": "drone-0003", "seq": 22, "timestamp": 1783038706731, "payload": {"lat": 47.3767658, "lon": 8.5416115, "alt": 418.0, "roll": -0.0872664600610733, "pitch": 0.03490658476948738, "yaw": 6.199586391448975, "battery": 88, "mode": "GUIDED"}}
{"run_id": "run-pipeline-test", "drone_id": "drone-0001", "seq": 23, "timestamp": 1783038706832, "payload": {"lat": 47.3769348, "lon": 8.5418714, "alt": 410.0, "roll": -0.0872664600610733, "pitch": 0.03490658476948738, "yaw": 2.0307962894439697, "battery": 87, "mode": "GUIDED"}}
{"run_id": "run-pipeline-test", "drone_id": "drone-0002", "seq": 23, "timestamp": 1783038706832, "payload": {"lat": 47.3769546, "lon": 8.5415454, "alt": 414.0, "roll": -0.0872664600610733, "pitch": 0.03490658476948738, "yaw": 4.1251912117004395, "battery": 87, "mode": "GUIDED"}}
{"run_id": "run-pipeline-test", "drone_id": "drone-0003", "seq": 23, "timestamp": 1783038706832, "payload": {"lat": 47.3767656, "lon": 8.5416168, "alt": 418.0, "roll": -0.0872664600610733, "pitch": 0.03490658476948738, "yaw": 6.219586372375488, "battery": 87, "mode": "GUIDED"}}
{"run_id": "run-pipeline-test", "drone_id": "drone-0001", "seq": 24, "timestamp": 1783038706929, "payload": {"lat": 47.376938, "lon": 8.541869, "alt": 410.0, "roll": -0.0872664600610733, "pitch": 0.03490658476948738, "yaw": 2.0507962703704834, "battery": 87, "mode": "GUIDED"}}
{"run_id": "run-pipeline-test", "drone_id": "drone-0002", "seq": 24, "timestamp": 1783038706929, "payload": {"lat": 47.3769516, "lon": 8.5415425, "alt": 414.0, "roll": -0.0872664600610733, "pitch": 0.03490658476948738, "yaw": 4.145191192626953, "battery": 87, "mode": "GUIDED"}}
{"run_id": "run-pipeline-test", "drone_id": "drone-0003", "seq": 24, "timestamp": 1783038706930, "payload": {"lat": 47.3767654, "lon": 8.5416221, "alt": 418.0, "roll": -0.0872664600610733, "pitch": 0.03490658476948738, "yaw": 6.239586353302002, "battery": 87, "mode": "GUIDED"}}
{"run_id": "run-pipeline-test", "drone_id": "drone-0001", "seq": 25, "timestamp": 1783038707032, "payload": {"lat": 47.3769412, "lon": 8.5418665, "alt": 410.0, "roll": -0.0872664600610733, "pitch": 0.03490658476948738, "yaw": 2.070796251296997, "battery": 86, "mode": "GUIDED"}}
{"run_id": "run-pipeline-test", "drone_id": "drone-0002", "seq": 25, "timestamp": 1783038707032, "payload": {"lat": 47.3769485, "lon": 8.5415397, "alt": 414.0, "roll": -0.0872664600610733, "pitch": 0.03490658476948738, "yaw": 4.165191650390625, "battery": 86, "mode": "GUIDED"}}
{"run_id": "run-pipeline-test", "drone_id": "drone-0003", "seq": 25, "timestamp": 1783038707032, "payload": {"lat": 47.3767653, "lon": 8.5416274, "alt": 418.0, "roll": -0.0872664600610733, "pitch": 0.03490658476948738, "yaw": 6.259586334228516, "battery": 86, "mode": "GUIDED"}}
{"run_id": "run-pipeline-test", "drone_id": "drone-0001", "seq": 26, "timestamp": 1783038707129, "payload": {"lat": 47.3769443, "lon": 8.5418639, "alt": 410.0, "roll": -0.0872664600610733, "pitch": 0.03490658476948738, "yaw": 2.0907962322235107, "battery": 86, "mode": "GUIDED"}}
{"run_id": "run-pipeline-test", "drone_id": "drone-0002", "seq": 26, "timestamp": 1783038707130, "payload": {"lat": 47.3769454, "lon": 8.541537, "alt": 414.0, "roll": -0.0872664600610733, "pitch": 0.03490658476948738, "yaw": 4.185191631317139, "battery": 86, "mode": "GUIDED"}}
{"run_id": "run-pipeline-test", "drone_id": "drone-0003", "seq": 26, "timestamp": 1783038707130, "payload": {"lat": 47.3767652, "lon": 8.5416327, "alt": 418.0, "roll": -0.0872664600610733, "pitch": 0.03490658476948738, "yaw": 6.279586315155029, "battery": 86, "mode": "GUIDED"}}
{"run_id": "run-pipeline-test", "drone_id": "drone-0001", "seq": 27, "timestamp": 1783038707230, "payload": {"lat": 47.3769474, "lon": 8.5418612, "alt": 410.0, "roll": -0.0872664600610733, "pitch": 0.03490658476948738, "yaw": 2.1107962131500244, "battery": 85, "mode": "GUIDED"}}
{"run_id": "run-pipeline-test", "drone_id": "drone-0002", "seq": 27, "timestamp": 1783038707231, "payload": {"lat": 47.3769423, "lon": 8.5415344, "alt": 414.0, "roll": -0.0872664600610733, "pitch": 0.03490658476948738, "yaw": 4.205191612243652, "battery": 85, "mode": "GUIDED"}}
{"run_id": "run-pipeline-test", "drone_id": "drone-0003", "seq": 27, "timestamp": 1783038707231, "payload": {"lat": 47.3767652, "lon": 8.541638, "alt": 418.0, "roll": -0.0872664600610733, "pitch": 0.03490658476948738, "yaw": 0.016401223838329315, "battery": 85, "mode": "GUIDED"}}
{"run_id": "run-pipeline-test", "drone_id": "drone-0001", "seq": 28, "timestamp": 1783038707337, "payload": {"lat": 47.3769505, "lon": 8.5418584, "alt": 410.0, "roll": -0.0872664600610733, "pitch": 0.03490658476948738, "yaw": 2.130796432495117, "battery": 84, "mode": "GUIDED"}}
{"run_id": "run-pipeline-test", "drone_id": "drone-0002", "seq": 28, "timestamp": 1783038707337, "payload": {"lat": 47.3769391, "lon": 8.5415318, "alt": 414.0, "roll": -0.0872664600610733, "pitch": 0.03490658476948738, "yaw": 4.225191593170166, "battery": 84, "mode": "GUIDED"}}
{"run_id": "run-pipeline-test", "drone_id": "drone-0003", "seq": 28, "timestamp": 1783038707338, "payload": {"lat": 47.3767653, "lon": 8.5416433, "alt": 418.0, "roll": -0.0872664600610733, "pitch": 0.03490658476948738, "yaw": 0.03640122339129448, "battery": 84, "mode": "GUIDED"}}
{"run_id": "run-pipeline-test", "drone_id": "drone-0001", "seq": 29, "timestamp": 1783038707431, "payload": {"lat": 47.3769535, "lon": 8.5418555, "alt": 410.0, "roll": -0.0872664600610733, "pitch": 0.03490658476948738, "yaw": 2.150796413421631, "battery": 84, "mode": "GUIDED"}}
{"run_id": "run-pipeline-test", "drone_id": "drone-0002", "seq": 29, "timestamp": 1783038707431, "payload": {"lat": 47.376936, "lon": 8.5415294, "alt": 414.0, "roll": -0.0872664600610733, "pitch": 0.03490658476948738, "yaw": 4.24519157409668, "battery": 84, "mode": "GUIDED"}}
{"run_id": "run-pipeline-test", "drone_id": "drone-0003", "seq": 29, "timestamp": 1783038707432, "payload": {"lat": 47.3767655, "lon": 8.5416486, "alt": 418.0, "roll": -0.0872664600610733, "pitch": 0.03490658476948738, "yaw": 0.056401222944259644, "battery": 84, "mode": "GUIDED"}}
{"run_id": "run-pipeline-test", "drone_id": "drone-0001", "seq": 30, "timestamp": 1783038707529, "payload": {"lat": 47.3769565, "lon": 8.5418526, "alt": 410.0, "roll": -0.0872664600610733, "pitch": 0.03490658476948738, "yaw": 2.1707963943481445, "battery": 83, "mode": "GUIDED"}}
{"run_id": "run-pipeline-test", "drone_id": "drone-0002", "seq": 30, "timestamp": 1783038707529, "payload": {"lat": 47.3769327, "lon": 8.5415271, "alt": 414.0, "roll": -0.0872664600610733, "pitch": 0.03490658476948738, "yaw": 4.265191555023193, "battery": 83, "mode": "GUIDED"}}
{"run_id": "run-pipeline-test", "drone_id": "drone-0003", "seq": 30, "timestamp": 1783038707529, "payload": {"lat": 47.3767657, "lon": 8.5416539, "alt": 418.0, "roll": -0.0872664600610733, "pitch": 0.03490658476948738, "yaw": 0.0764012262225151, "battery": 83, "mode": "GUIDED"}}
{"run_id": "run-pipeline-test", "drone_id": "drone-0001", "seq": 31, "timestamp": 1783038707630, "payload": {"lat": 47.3769594, "lon": 8.5418496, "alt": 410.0, "roll": -0.0872664600610733, "pitch": 0.03490658476948738, "yaw": 2.190796375274658, "battery": 83, "mode": "GUIDED"}}
{"run_id": "run-pipeline-test", "drone_id": "drone-0002", "seq": 31, "timestamp": 1783038707631, "payload": {"lat": 47.3769295, "lon": 8.5415248, "alt": 414.0, "roll": -0.0872664600610733, "pitch": 0.03490658476948738, "yaw": 4.285191535949707, "battery": 83, "mode": "GUIDED"}}
{"run_id": "run-pipeline-test", "drone_id": "drone-0003", "seq": 31, "timestamp": 1783038707631, "payload": {"lat": 47.376766, "lon": 8.5416592, "alt": 418.0, "roll": -0.0872664600610733, "pitch": 0.03490658476948738, "yaw": 0.09640122205018997, "battery": 83, "mode": "GUIDED"}}
{"run_id": "run-pipeline-test", "drone_id": "drone-0001", "seq": 32, "timestamp": 1783038707727, "payload": {"lat": 47.3769623, "lon": 8.5418464, "alt": 410.0, "roll": -0.0872664600610733, "pitch": 0.03490658476948738, "yaw": 2.210796356201172, "battery": 82, "mode": "GUIDED"}}
{"run_id": "run-pipeline-test", "drone_id": "drone-0002", "seq": 32, "timestamp": 1783038707728, "payload": {"lat": 47.3769262, "lon": 8.5415227, "alt": 414.0, "roll": -0.0872664600610733, "pitch": 0.03490658476948738, "yaw": 4.305191516876221, "battery": 82, "mode": "GUIDED"}}
{"run_id": "run-pipeline-test", "drone_id": "drone-0003", "seq": 32, "timestamp": 1783038707728, "payload": {"lat": 47.3767664, "lon": 8.5416644, "alt": 418.0, "roll": -0.0872664600610733, "pitch": 0.03490658476948738, "yaw": 0.11640122532844543, "battery": 82, "mode": "GUIDED"}}
{"run_id": "run-pipeline-test", "drone_id": "drone-0001", "seq": 33, "timestamp": 1783038707832, "payload": {"lat": 47.3769652, "lon": 8.5418432, "alt": 410.0, "roll": -0.0872664600610733, "pitch": 0.03490658476948738, "yaw": 2.2307963371276855, "battery": 82, "mode": "GUIDED"}}
{"run_id": "run-pipeline-test", "drone_id": "drone-0002", "seq": 33, "timestamp": 1783038707832, "payload": {"lat": 47.3769229, "lon": 8.5415206, "alt": 414.0, "roll": -0.0872664600610733, "pitch": 0.03490658476948738, "yaw": 4.325191497802734, "battery": 82, "mode": "GUIDED"}}
{"run_id": "run-pipeline-test", "drone_id": "drone-0003", "seq": 33, "timestamp": 1783038707832, "payload": {"lat": 47.3767669, "lon": 8.5416697, "alt": 418.0, "roll": -0.0872664600610733, "pitch": 0.03490658476948738, "yaw": 0.1364012211561203, "battery": 82, "mode": "GUIDED"}}
{"run_id": "run-pipeline-test", "drone_id": "drone-0001", "seq": 34, "timestamp": 1783038707931, "payload": {"lat": 47.376968, "lon": 8.5418399, "alt": 410.0, "roll": -0.0872664600610733, "pitch": 0.03490658476948738, "yaw": 2.250796318054199, "battery": 81, "mode": "GUIDED"}}
{"run_id": "run-pipeline-test", "drone_id": "drone-0002", "seq": 34, "timestamp": 1783038707932, "payload": {"lat": 47.3769195, "lon": 8.5415187, "alt": 414.0, "roll": -0.0872664600610733, "pitch": 0.03490658476948738, "yaw": 4.345191478729248, "battery": 81, "mode": "GUIDED"}}
{"run_id": "run-pipeline-test", "drone_id": "drone-0003", "seq": 34, "timestamp": 1783038707932, "payload": {"lat": 47.3767674, "lon": 8.5416749, "alt": 418.0, "roll": -0.0872664600610733, "pitch": 0.03490658476948738, "yaw": 0.15640121698379517, "battery": 81, "mode": "GUIDED"}}
{"run_id": "run-pipeline-test", "drone_id": "drone-0001", "seq": 35, "timestamp": 1783038708032, "payload": {"lat": 47.3769708, "lon": 8.5418365, "alt": 410.0, "roll": -0.0872664600610733, "pitch": 0.03490658476948738, "yaw": 2.270796298980713, "battery": 80, "mode": "GUIDED"}}
{"run_id": "run-pipeline-test", "drone_id": "drone-0002", "seq": 35, "timestamp": 1783038708032, "payload": {"lat": 47.3769162, "lon": 8.5415168, "alt": 414.0, "roll": -0.0872664600610733, "pitch": 0.03490658476948738, "yaw": 4.365191459655762, "battery": 80, "mode": "GUIDED"}}
{"run_id": "run-pipeline-test", "drone_id": "drone-0003", "seq": 35, "timestamp": 1783038708032, "payload": {"lat": 47.376768, "lon": 8.5416802, "alt": 418.0, "roll": -0.0872664600610733, "pitch": 0.03490658476948738, "yaw": 0.17640122771263123, "battery": 80, "mode": "GUIDED"}}
{"run_id": "run-pipeline-test", "drone_id": "drone-0001", "seq": 36, "timestamp": 1783038708129, "payload": {"lat": 47.3769735, "lon": 8.5418331, "alt": 410.0, "roll": -0.0872664600610733, "pitch": 0.03490658476948738, "yaw": 2.2907962799072266, "battery": 80, "mode": "GUIDED"}}
{"run_id": "run-pipeline-test", "drone_id": "drone-0002", "seq": 36, "timestamp": 1783038708130, "payload": {"lat": 47.3769128, "lon": 8.541515, "alt": 414.0, "roll": -0.0872664600610733, "pitch": 0.03490658476948738, "yaw": 4.385191440582275, "battery": 80, "mode": "GUIDED"}}
{"run_id": "run-pipeline-test", "drone_id": "drone-0003", "seq": 36, "timestamp": 1783038708130, "payload": {"lat": 47.3767687, "lon": 8.5416854, "alt": 418.0, "roll": -0.0872664600610733, "pitch": 0.03490658476948738, "yaw": 0.1964012235403061, "battery": 80, "mode": "GUIDED"}}
{"run_id": "run-pipeline-test", "drone_id": "drone-0001", "seq": 37, "timestamp": 1783038708231, "payload": {"lat": 47.3769762, "lon": 8.5418295, "alt": 410.0, "roll": -0.0872664600610733, "pitch": 0.03490658476948738, "yaw": 2.3107962608337402, "battery": 79, "mode": "GUIDED"}}
{"run_id": "run-pipeline-test", "drone_id": "drone-0002", "seq": 37, "timestamp": 1783038708232, "payload": {"lat": 47.3769094, "lon": 8.5415134, "alt": 414.0, "roll": -0.0872664600610733, "pitch": 0.03490658476948738, "yaw": 4.405191421508789, "battery": 79, "mode": "GUIDED"}}
{"run_id": "run-pipeline-test", "drone_id": "drone-0003", "seq": 37, "timestamp": 1783038708232, "payload": {"lat": 47.3767694, "lon": 8.5416906, "alt": 418.0, "roll": -0.0872664600610733, "pitch": 0.03490658476948738, "yaw": 0.21640121936798096, "battery": 79, "mode": "GUIDED"}}
{"run_id": "run-pipeline-test", "drone_id": "drone-0001", "seq": 38, "timestamp": 1783038708329, "payload": {"lat": 47.3769788, "lon": 8.5418259, "alt": 410.0, "roll": -0.0872664600610733, "pitch": 0.03490658476948738, "yaw": 2.330796241760254, "battery": 79, "mode": "GUIDED"}}
{"run_id": "run-pipeline-test", "drone_id": "drone-0002", "seq": 38, "timestamp": 1783038708329, "payload": {"lat": 47.3769059, "lon": 8.5415118, "alt": 414.0, "roll": -0.0872664600610733, "pitch": 0.03490658476948738, "yaw": 4.425191402435303, "battery": 79, "mode": "GUIDED"}}
{"run_id": "run-pipeline-test", "drone_id": "drone-0003", "seq": 38, "timestamp": 1783038708330, "payload": {"lat": 47.3767702, "lon": 8.5416958, "alt": 418.0, "roll": -0.0872664600610733, "pitch": 0.03490658476948738, "yaw": 0.23640123009681702, "battery": 79, "mode": "GUIDED"}}
{"run_id": "run-pipeline-test", "drone_id": "drone-0001", "seq": 39, "timestamp": 1783038708432, "payload": {"lat": 47.3769814, "lon": 8.5418222, "alt": 410.0, "roll": -0.0872664600610733, "pitch": 0.03490658476948738, "yaw": 2.3507962226867676, "battery": 78, "mode": "GUIDED"}}
{"run_id": "run-pipeline-test", "drone_id": "drone-0002", "seq": 39, "timestamp": 1783038708432, "payload": {"lat": 47.3769025, "lon": 8.5415104, "alt": 414.0, "roll": -0.0872664600610733, "pitch": 0.03490658476948738, "yaw": 4.445191383361816, "battery": 78, "mode": "GUIDED"}}
{"run_id": "run-pipeline-test", "drone_id": "drone-0003", "seq": 39, "timestamp": 1783038708432, "payload": {"lat": 47.3767711, "lon": 8.5417009, "alt": 418.0, "roll": -0.0872664600610733, "pitch": 0.03490658476948738, "yaw": 0.2564012110233307, "battery": 78, "mode": "GUIDED"}}
{"run_id": "run-pipeline-test", "drone_id": "drone-0001", "seq": 40, "timestamp": 1783038708528, "payload": {"lat": 47.3769839, "lon": 8.5418185, "alt": 410.0, "roll": -0.0872664600610733, "pitch": 0.03490658476948738, "yaw": 2.3707964420318604, "battery": 78, "mode": "GUIDED"}}
{"run_id": "run-pipeline-test", "drone_id": "drone-0002", "seq": 40, "timestamp": 1783038708529, "payload": {"lat": 47.376899, "lon": 8.541509, "alt": 414.0, "roll": -0.0872664600610733, "pitch": 0.03490658476948738, "yaw": 4.46519136428833, "battery": 78, "mode": "GUIDED"}}
{"run_id": "run-pipeline-test", "drone_id": "drone-0003", "seq": 40, "timestamp": 1783038708529, "payload": {"lat": 47.376772, "lon": 8.541706, "alt": 418.0, "roll": -0.0872664600610733, "pitch": 0.03490658476948738, "yaw": 0.27640122175216675, "battery": 78, "mode": "GUIDED"}}
{"run_id": "run-pipeline-test", "drone_id": "drone-0001", "seq": 41, "timestamp": 1783038708628, "payload": {"lat": 47.3769864, "lon": 8.5418146, "alt": 410.0, "roll": -0.0872664600610733, "pitch": 0.03490658476948738, "yaw": 2.390796422958374, "battery": 77, "mode": "GUIDED"}}
{"run_id": "run-pipeline-test", "drone_id": "drone-0002", "seq": 41, "timestamp": 1783038708629, "payload": {"lat": 47.3768955, "lon": 8.5415078, "alt": 414.0, "roll": -0.0872664600610733, "pitch": 0.03490658476948738, "yaw": 4.485191345214844, "battery": 77, "mode": "GUIDED"}}
{"run_id": "run-pipeline-test", "drone_id": "drone-0003", "seq": 41, "timestamp": 1783038708629, "payload": {"lat": 47.376773, "lon": 8.5417111, "alt": 418.0, "roll": -0.0872664600610733, "pitch": 0.03490658476948738, "yaw": 0.2964012324810028, "battery": 77, "mode": "GUIDED"}}
{"run_id": "run-pipeline-test", "drone_id": "drone-0001", "seq": 42, "timestamp": 1783038708730, "payload": {"lat": 47.3769888, "lon": 8.5418107, "alt": 410.0, "roll": -0.0872664600610733, "pitch": 0.03490658476948738, "yaw": 2.4107964038848877, "battery": 77, "mode": "GUIDED"}}
{"run_id": "run-pipeline-test", "drone_id": "drone-0002", "seq": 42, "timestamp": 1783038708731, "payload": {"lat": 47.376892, "lon": 8.5415066, "alt": 414.0, "roll": -0.0872664600610733, "pitch": 0.03490658476948738, "yaw": 4.505191326141357, "battery": 77, "mode": "GUIDED"}}
{"run_id": "run-pipeline-test", "drone_id": "drone-0003", "seq": 42, "timestamp": 1783038708731, "payload": {"lat": 47.3767741, "lon": 8.5417162, "alt": 418.0, "roll": -0.0872664600610733, "pitch": 0.03490658476948738, "yaw": 0.3164012134075165, "battery": 77, "mode": "GUIDED"}}
{"run_id": "run-pipeline-test", "drone_id": "drone-0001", "seq": 43, "timestamp": 1783038708829, "payload": {"lat": 47.3769912, "lon": 8.5418067, "alt": 410.0, "roll": -0.0872664600610733, "pitch": 0.03490658476948738, "yaw": 2.4307963848114014, "battery": 76, "mode": "GUIDED"}}
{"run_id": "run-pipeline-test", "drone_id": "drone-0002", "seq": 43, "timestamp": 1783038708830, "payload": {"lat": 47.3768885, "lon": 8.5415056, "alt": 414.0, "roll": -0.0872664600610733, "pitch": 0.03490658476948738, "yaw": 4.525191307067871, "battery": 76, "mode": "GUIDED"}}
{"run_id": "run-pipeline-test", "drone_id": "drone-0003", "seq": 43, "timestamp": 1783038708830, "payload": {"lat": 47.3767753, "lon": 8.5417212, "alt": 418.0, "roll": -0.0872664600610733, "pitch": 0.03490658476948738, "yaw": 0.33640122413635254, "battery": 76, "mode": "GUIDED"}}
{"run_id": "run-pipeline-test", "drone_id": "drone-0001", "seq": 44, "timestamp": 1783038708932, "payload": {"lat": 47.3769935, "lon": 8.5418027, "alt": 410.0, "roll": -0.0872664600610733, "pitch": 0.03490658476948738, "yaw": 2.450796365737915, "battery": 75, "mode": "GUIDED"}}
{"run_id": "run-pipeline-test", "drone_id": "drone-0002", "seq": 44, "timestamp": 1783038708938, "payload": {"lat": 47.3768849, "lon": 8.5415047, "alt": 414.0, "roll": -0.0872664600610733, "pitch": 0.03490658476948738, "yaw": 4.545191287994385, "battery": 75, "mode": "GUIDED"}}
{"run_id": "run-pipeline-test", "drone_id": "drone-0003", "seq": 44, "timestamp": 1783038708938, "payload": {"lat": 47.3767765, "lon": 8.5417262, "alt": 418.0, "roll": -0.0872664600610733, "pitch": 0.03490658476948738, "yaw": 0.3564012348651886, "battery": 75, "mode": "GUIDED"}}
{"run_id": "run-pipeline-test", "drone_id": "drone-0001", "seq": 45, "timestamp": 1783038709028, "payload": {"lat": 47.3769958, "lon": 8.5417985, "alt": 410.0, "roll": -0.0872664600610733, "pitch": 0.03490658476948738, "yaw": 2.4707963466644287, "battery": 75, "mode": "GUIDED"}}
{"run_id": "run-pipeline-test", "drone_id": "drone-0002", "seq": 45, "timestamp": 1783038709028, "payload": {"lat": 47.3768814, "lon": 8.5415038, "alt": 414.0, "roll": -0.0872664600610733, "pitch": 0.03490658476948738, "yaw": 4.565191268920898, "battery": 75, "mode": "GUIDED"}}
{"run_id": "run-pipeline-test", "drone_id": "drone-0003", "seq": 45, "timestamp": 1783038709029, "payload": {"lat": 47.3767778, "lon": 8.5417311, "alt": 418.0, "roll": -0.0872664600610733, "pitch": 0.03490658476948738, "yaw": 0.37640121579170227, "battery": 75, "mode": "GUIDED"}}
{"run_id": "run-pipeline-test", "drone_id": "drone-0001", "seq": 46, "timestamp": 1783038709132, "payload": {"lat": 47.376998, "lon": 8.5417944, "alt": 410.0, "roll": -0.0872664600610733, "pitch": 0.03490658476948738, "yaw": 2.4907963275909424, "battery": 74, "mode": "GUIDED"}}
{"run_id": "run-pipeline-test", "drone_id": "drone-0002", "seq": 46, "timestamp": 1783038709132, "payload": {"lat": 47.3768778, "lon": 8.5415031, "alt": 414.0, "roll": -0.0872664600610733, "pitch": 0.03490658476948738, "yaw": 4.585191249847412, "battery": 74, "mode": "GUIDED"}}
{"run_id": "run-pipeline-test", "drone_id": "drone-0003", "seq": 46, "timestamp": 1783038709132, "payload": {"lat": 47.3767791, "lon": 8.5417361, "alt": 418.0, "roll": -0.0872664600610733, "pitch": 0.03490658476948738, "yaw": 0.39640122652053833, "battery": 74, "mode": "GUIDED"}}
{"run_id": "run-pipeline-test", "drone_id": "drone-0001", "seq": 47, "timestamp": 1783038709231, "payload": {"lat": 47.3770001, "lon": 8.5417901, "alt": 410.0, "roll": -0.0872664600610733, "pitch": 0.03490658476948738, "yaw": 2.510796308517456, "battery": 74, "mode": "GUIDED"}}
{"run_id": "run-pipeline-test", "drone_id": "drone-0002", "seq": 47, "timestamp": 1783038709232, "payload": {"lat": 47.3768743, "lon": 8.5415025, "alt": 414.0, "roll": -0.0872664600610733, "pitch": 0.03490658476948738, "yaw": 4.605191230773926, "battery": 74, "mode": "GUIDED"}}
{"run_id": "run-pipeline-test", "drone_id": "drone-0003", "seq": 47, "timestamp": 1783038709232, "payload": {"lat": 47.3767806, "lon": 8.5417409, "alt": 418.0, "roll": -0.0872664600610733, "pitch": 0.03490658476948738, "yaw": 0.4164012372493744, "battery": 74, "mode": "GUIDED"}}
{"run_id": "run-pipeline-test", "drone_id": "drone-0001", "seq": 48, "timestamp": 1783038709332, "payload": {"lat": 47.3770022, "lon": 8.5417858, "alt": 410.0, "roll": -0.0872664600610733, "pitch": 0.03490658476948738, "yaw": 2.5307962894439697, "battery": 73, "mode": "GUIDED"}}
{"run_id": "run-pipeline-test", "drone_id": "drone-0002", "seq": 48, "timestamp": 1783038709332, "payload": {"lat": 47.3768707, "lon": 8.541502, "alt": 414.0, "roll": -0.0872664600610733, "pitch": 0.03490658476948738, "yaw": 4.6251912117004395, "battery": 73, "mode": "GUIDED"}}
{"run_id": "run-pipeline-test", "drone_id": "drone-0003", "seq": 48, "timestamp": 1783038709332, "payload": {"lat": 47.376782, "lon": 8.5417458, "alt": 418.0, "roll": -0.0872664600610733, "pitch": 0.03490658476948738, "yaw": 0.43640121817588806, "battery": 73, "mode": "GUIDED"}}
{"run_id": "run-pipeline-test", "drone_id": "drone-0001", "seq": 49, "timestamp": 1783038709432, "payload": {"lat": 47.3770042, "lon": 8.5417814, "alt": 410.0, "roll": -0.0872664600610733, "pitch": 0.03490658476948738, "yaw": 2.5507962703704834, "battery": 73, "mode": "GUIDED"}}
{"run_id": "run-pipeline-test", "drone_id": "drone-0002", "seq": 49, "timestamp": 1783038709432, "payload": {"lat": 47.3768671, "lon": 8.5415016, "alt": 414.0, "roll": -0.0872664600610733, "pitch": 0.03490658476948738, "yaw": 4.645191192626953, "battery": 73, "mode": "GUIDED"}}
{"run_id": "run-pipeline-test", "drone_id": "drone-0003", "seq": 49, "timestamp": 1783038709432, "payload": {"lat": 47.3767836, "lon": 8.5417506, "alt": 418.0, "roll": -0.0872664600610733, "pitch": 0.03490658476948738, "yaw": 0.4564012289047241, "battery": 73, "mode": "GUIDED"}}
{"run_id": "run-pipeline-test", "drone_id": "drone-0001", "seq": 50, "timestamp": 1783038709527, "payload": {"lat": 47.3770062, "lon": 8.541777, "alt": 410.0, "roll": -0.0872664600610733, "pitch": 0.03490658476948738, "yaw": 2.570796251296997, "battery": 72, "mode": "GUIDED"}}
{"run_id": "run-pipeline-test", "drone_id": "drone-0002", "seq": 50, "timestamp": 1783038709527, "payload": {"lat": 47.3768635, "lon": 8.5415013, "alt": 414.0, "roll": -0.0872664600610733, "pitch": 0.03490658476948738, "yaw": 4.665191650390625, "battery": 72, "mode": "GUIDED"}}
{"run_id": "run-pipeline-test", "drone_id": "drone-0003", "seq": 50, "timestamp": 1783038709527, "payload": {"lat": 47.3767852, "lon": 8.5417553, "alt": 418.0, "roll": -0.0872664600610733, "pitch": 0.03490658476948738, "yaw": 0.4764012098312378, "battery": 72, "mode": "GUIDED"}}
